{
"type": "FeatureCollection",
"name": "POI_layer",
"crs": { "type": "name", "properties": { "name": "urn:ogc:def:crs:OGC::CRS84" } },
"features": [
{ "type": "Feature", "properties": { "name": "Coal Creek Rapids", "waterway": "rapids", "description/rapids_class": null }, "geometry": { "type": "Point", "coordinates": [ -110.0625651, 39.2519052 ] } },
{ "type": "Feature", "properties": { "name": "Moonwater Rapids", "waterway": "rapids", "description/rapids_class": null }, "geometry": { "type": "Point", "coordinates": [ -110.0209801, 39.4219102 ] } },
{ "type": "Feature", "properties": { "name": "Nefertiti", "waterway": "rapids", "description/rapids_class": null }, "geometry": { "type": "Point", "coordinates": [ -110.0801194, 39.1932759 ] } },
{ "type": "Feature", "properties": { "name": null, "waterway": "rapids", "description/rapids_class": null }, "geometry": { "type": "Point", "coordinates": [ -110.1117787, 39.1156014 ] } },
{ "type": "Feature", "properties": { "name": "Jack Creek Rapids", "waterway": "rapids", "description/rapids_class": null }, "geometry": { "type": "Point", "coordinates": [ -109.9929262, 39.6985756 ] } },
{ "type": "Feature", "properties": { "name": "Log Cabin Rapids", "waterway": "rapids", "description/rapids_class": null }, "geometry": { "type": "Point", "coordinates": [ -110.0287599, 39.5513543 ] } },
{ "type": "Feature", "properties": { "name": "Three Canyon Rapids", "waterway": "rapids", "description/rapids_class": null }, "geometry": { "type": "Point", "coordinates": [ -110.0232038, 39.5066323 ] } },
{ "type": "Feature", "properties": { "name": null, "waterway": "note", "description/rapids_class": "A BLM river permit is required to boat downstream of this point." }, "geometry": { "type": "Point", "coordinates": [ -109.9131835, 39.8409784 ] } },
{ "type": "Feature", "properties": { "name": null, "waterway": "rapids", "description/rapids_class": null }, "geometry": { "type": "Point", "coordinates": [ -110.1140265, 39.151517 ] } },
{ "type": "Feature", "properties": { "name": "Joe Hutch Canyon Rapids", "waterway": "rapids", "description/rapids_class": null }, "geometry": { "type": "Point", "coordinates": [ -110.019035, 39.3938547 ] } },
{ "type": "Feature", "properties": { "name": "Red Point Rapids", "waterway": "rapids", "description/rapids_class": null }, "geometry": { "type": "Point", "coordinates": [ -110.0151464, 39.4205213 ] } },
{ "type": "Feature", "properties": { "name": "Bull Canyon Rapids", "waterway": "rapids", "description/rapids_class": null }, "geometry": { "type": "Point", "coordinates": [ -110.0218137, 39.4374657 ] } },
{ "type": "Feature", "properties": { "name": "Last Chance Rapids", "waterway": "rapids", "description/rapids_class": null }, "geometry": { "type": "Point", "coordinates": [ -110.0582021, 39.3160774 ] } },
{ "type": "Feature", "properties": { "name": null, "waterway": "rapids", "description/rapids_class": null }, "geometry": { "type": "Point", "coordinates": [ -110.1143245, 39.1576003 ] } },
{ "type": "Feature", "properties": { "name": "Swasey's Beach Campground", "waterway": "campground", "description/rapids_class": null }, "geometry": { "type": "Point", "coordinates": [ -110.1112325, 39.1161289 ] } },
{ "type": "Feature", "properties": { "name": "Range Creek Rapids", "waterway": "rapids", "description/rapids_class": null }, "geometry": { "type": "Point", "coordinates": [ -110.0520906, 39.3071885 ] } },
{ "type": "Feature", "properties": { "name": null, "waterway": "rapids", "description/rapids_class": null }, "geometry": { "type": "Point", "coordinates": [ -110.0782102, 39.1954812 ] } },
{ "type": "Feature", "properties": { "name": "Wild Horse Rapids", "waterway": "rapids", "description/rapids_class": null }, "geometry": { "type": "Point", "coordinates": [ -110.0259822, 39.5919095 ] } },
{ "type": "Feature", "properties": { "name": "Rock Creek Rapids", "waterway": "rapids", "description/rapids_class": null }, "geometry": { "type": "Point", "coordinates": [ -110.0295931, 39.5413544 ] } },
{ "type": "Feature", "properties": { "name": "Joe Hutch Creek Rapids", "waterway": "rapids", "description/rapids_class": null }, "geometry": { "type": "Point", "coordinates": [ -110.013016, 39.4071993 ] } },
{ "type": "Feature", "properties": { "name": "Little Rock House Riffle", "waterway": "rapids", "description/rapids_class": null }, "geometry": { "type": "Point", "coordinates": [ -109.9520914, 39.7369089 ] } },
{ "type": "Feature", "properties": { "name": "Big Canyon Rapids", "waterway": "rapids", "description/rapids_class": null }, "geometry": { "type": "Point", "coordinates": [ -109.9870925, 39.676909 ] } },
{ "type": "Feature", "properties": { "name": "Curry Rapids", "waterway": "rapids", "description/rapids_class": null }, "geometry": { "type": "Point", "coordinates": [ -110.0732022, 39.2707999 ] } },
{ "type": "Feature", "properties": { "name": "Firewater Rapids", "waterway": "rapids", "description/rapids_class": null }, "geometry": { "type": "Point", "coordinates": [ -109.9862591, 39.6624647 ] } },
{ "type": "Feature", "properties": { "name": "Flat Canyon Rapids", "waterway": "rapids", "description/rapids_class": null }, "geometry": { "type": "Point", "coordinates": [ -110.0068152, 39.6335759 ] } },
{ "type": "Feature", "properties": { "name": "Saleratus Rapids", "waterway": "rapids", "description/rapids_class": null }, "geometry": { "type": "Point", "coordinates": [ -110.0607014, 39.2632998 ] } },
{ "type": "Feature", "properties": { "name": "Cedar Ridge Rapids", "waterway": "rapids", "description/rapids_class": null }, "geometry": { "type": "Point", "coordinates": [ -109.9907036, 39.653298 ] } },
{ "type": "Feature", "properties": { "name": null, "waterway": "rapids", "description/rapids_class": null }, "geometry": { "type": "Point", "coordinates": [ -110.1124396, 39.1285357 ] } },
{ "type": "Feature", "properties": { "name": "Swasey Boat Ramp", "waterway": "slipway", "description/rapids_class": null }, "geometry": { "type": "Point", "coordinates": [ -110.109088, 39.1123948 ] } },
{ "type": "Feature", "properties": { "name": "Steer Ridge Rapids", "waterway": "rapids", "description/rapids_class": null }, "geometry": { "type": "Point", "coordinates": [ -110.035149, 39.5730209 ] } },
{ "type": "Feature", "properties": { "name": "Trail Canyon Rapids", "waterway": "rapids", "description/rapids_class": null }, "geometry": { "type": "Point", "coordinates": [ -110.0154249, 39.4549656 ] } },
{ "type": "Feature", "properties": { "name": "Swasey's Beach Access", "waterway": "access_point", "description/rapids_class": null }, "geometry": { "type": "Point", "coordinates": [ -110.1099687, 39.1153029 ] } },
{ "type": "Feature", "properties": { "name": "Rabbit Valley Rapids", "waterway": "rapids", "description/rapids_class": null }, "geometry": { "type": "Point", "coordinates": [ -110.0726467, 39.2844109 ] } },
{ "type": "Feature", "properties": { "name": "Snap Canyon Rapids", "waterway": "rapids", "description/rapids_class": null }, "geometry": { "type": "Point", "coordinates": [ -110.0254262, 39.5207988 ] } },
{ "type": "Feature", "properties": { "name": "Three Fords Rapids", "waterway": "rapids", "description/rapids_class": null }, "geometry": { "type": "Point", "coordinates": [ -110.0271132, 39.3513446 ] } },
{ "type": "Feature", "properties": { "name": null, "waterway": "rapids", "description/rapids_class": null }, "geometry": { "type": "Point", "coordinates": [ -110.1013145, 39.1404503 ] } },
{ "type": "Feature", "properties": { "name": "Sand Wash Boat Ramp", "waterway": "slipway", "description/rapids_class": null }, "geometry": { "type": "Point", "coordinates": [ -109.9135375, 39.840531 ] } },
{ "type": "Feature", "properties": { "name": "Calf Canyon Rapids", "waterway": "rapids", "description/rapids_class": null }, "geometry": { "type": "Point", "coordinates": [ -110.0435145, 39.5299555 ] } }
]
}
