{"type": "FeatureCollection", "pois": [{"name": "Mathers Hole River Camp", "kind": "camp", "category": "camp", "lat": 40.471042, "lon": -108.870142, "grade": null, "description": null}, {"name": "Teepee Hole River Camp", "kind": "camp", "category": "camp", "lat": 40.467902, "lon": -108.638666, "grade": null, "description": null}, {"name": "TeePee Rapid", "kind": "rapid", "category": "rapid", "lat": 40.467473, "lon": -108.638307, "grade": null, "description": null}, {"name": "Deerlodge Park Campground", "kind": "camp", "category": "camp", "lat": 40.446836, "lon": -108.512679, "grade": null, "description": null}, {"name": "Anderson Hole River Camp", "kind": "camp", "category": "camp", "lat": 40.467671, "lon": -108.576848, "grade": null, "description": null}, {"name": "Laddie Park River Camp 1", "kind": "camp", "category": "camp", "lat": 40.479376, "lon": -108.907913, "grade": null, "description": null}, {"name": "Deerlodge Park Boat Ramp", "kind": "boat_ramp", "category": "access", "lat": 40.446371, "lon": -108.511746, "grade": null, "description": null}, {"name": "Echo Park Boat Launch", "kind": "boat_ramp", "category": "access", "lat": 40.520561, "lon": -108.990377, "grade": null, "description": null}, {"name": "Warm Springs River Camp", "kind": "camp", "category": "camp", "lat": 40.531703, "lon": -108.931837, "grade": null, "description": null}, {"name": null, "kind": "rapid", "category": "rapid", "lat": 40.47251, "lon": -108.561484, "grade": null, "description": null}, {"name": "Warm Spring Rapid", "kind": "rapid", "category": "rapid", "lat": 40.52935, "lon": -108.928715, "grade": null, "description": null}, {"name": "Big Joe River Camp", "kind": "camp", "category": "camp", "lat": 40.492032, "lon": -108.81466, "grade": null, "description": null}, {"name": "Echo Park Campground", "kind": "camp", "category": "camp", "lat": 40.520809, "lon": -108.993232, "grade": null, "description": null}, {"name": "Harding Hole River Camp 3", "kind": "camp", "category": "camp", "lat": 40.465119, "lon": -108.844651, "grade": null, "description": null}, {"name": "Harding Hole River Camp 4", "kind": "camp", "category": "camp", "lat": 40.464782, "lon": -108.847256, "grade": null, "description": null}, {"name": "Split Rock Rapid", "kind": "rapid", "category": "rapid", "lat": 40.45811, "lon": -108.628004, "grade": null, "description": null}, {"name": "Big Joe Rapid", "kind": "rapid", "category": "rapid", "lat": 40.4918, "lon": -108.814013, "grade": null, "description": null}, {"name": "Ponderosa River Camp", "kind": "camp", "category": "camp", "lat": 40.464259, "lon": -108.634013, "grade": null, "description": null}, {"name": "Box Elder River Camp 3", "kind": "camp", "category": "camp", "lat": 40.521682, "lon": -108.958775, "grade": null, "description": null}, {"name": "Harding Hole River Camp 2", "kind": "camp", "category": "camp", "lat": 40.465354, "lon": -108.843385, "grade": null, "description": null}, {"name": null, "kind": "rapid", "category": "rapid", "lat": 40.46959, "lon": -108.643507, "grade": null, "description": null}, {"name": "Box Elder River Camp 1", "kind": "camp", "category": "camp", "lat": 40.52018, "lon": -108.957198, "grade": null, "description": null}, {"name": "Box Elder River Camp 2", "kind": "camp", "category": "camp", "lat": 40.520967, "lon": -108.958867, "grade": null, "description": null}, {"name": "Harding Hole River Camp 1", "kind": "camp", "category": "camp", "lat": 40.465842, "lon": -108.842752, "grade": null, "description": null}, {"name": "Laddie Park River Camp 2", "kind": "camp", "category": "camp", "lat": 40.480219, "lon": -108.908513, "grade": null, "description": null}, {"name": null, "kind": "rapid", "category": "rapid", "lat": 40.489381, "lon": -108.738866, "grade": null, "description": null}], "count": 26}