{"type":"FeatureCollection","features":[{"type":"Feature","properties":{"name":"Loon Creek Hot Spring","category":"note","kind":"note","distance_from_putin_mi":0.0,"river_mi":0.0,"grade":null,"description":null,"source":"curated"},"geometry":{"type":"Point","coordinates":[-114.805678,44.798801]}},{"type":"Feature","properties":{"name":"Sunflower Hot Springs","category":"note","kind":"note","distance_from_putin_mi":0.0,"river_mi":0.0,"grade":null,"description":null,"source":"curated"},"geometry":{"type":"Point","coordinates":[-114.993607,44.729224]}},{"type":"Feature","properties":{"name":"Cox Hot Springs","category":"note","kind":"note","distance_from_putin_mi":0.0,"river_mi":0.0,"grade":null,"description":null,"source":"curated"},"geometry":{"type":"Point","coordinates":[-114.857058,44.783572]}},{"type":"Feature","properties":{"name":"Hospital Hot Spring","category":"note","kind":"note","distance_from_putin_mi":0.0,"river_mi":0.0,"grade":null,"description":null,"source":"curated"},"geometry":{"type":"Point","coordinates":[-114.791186,44.83603]}},{"type":"Feature","properties":{"name":"Ski Jump Rapid","category":"rapid","kind":"rapid","distance_from_putin_mi":0.0,"river_mi":0.0,"grade":"II-IV","description":"Highly flow-dependent","source":"curated"},"geometry":{"type":"Point","coordinates":[-115.014542,44.737965]}},{"type":"Feature","properties":{"name":"Lake Creek Rapids","category":"rapid","kind":"rapid","distance_from_putin_mi":0.0,"river_mi":0.0,"grade":"III","description":null,"source":"curated"},"geometry":{"type":"Point","coordinates":[-115.141992,44.719153]}},{"type":"Feature","properties":{"name":"Funston Campsite","category":"camp","kind":"camp","distance_from_putin_mi":0.0,"river_mi":0.0,"grade":null,"description":null,"source":"curated"},"geometry":{"type":"Point","coordinates":[-114.732657,44.908347]}},{"type":"Feature","properties":{"name":"Joe Bump Campsite","category":"camp","kind":"camp","distance_from_putin_mi":0.0,"river_mi":0.0,"grade":null,"description":null,"source":"curated"},"geometry":{"type":"Point","coordinates":[-115.21299,44.625815]}},{"type":"Feature","properties":{"name":"Mist Falls Rapids","category":"rapid","kind":"rapid","distance_from_putin_mi":0.0,"river_mi":0.0,"grade":"II","description":null,"source":"curated"},"geometry":{"type":"Point","coordinates":[-114.723474,45.160332]}},{"type":"Feature","properties":{"name":"Cutthroat Cove Rapids","category":"rapid","kind":"rapid","distance_from_putin_mi":0.0,"river_mi":0.0,"grade":"II","description":null,"source":"curated"},"geometry":{"type":"Point","coordinates":[-114.730679,45.104829]}},{"type":"Feature","properties":{"name":"Rapid River Campsite","category":"camp","kind":"camp","distance_from_putin_mi":0.0,"river_mi":0.0,"grade":null,"description":null,"source":"curated"},"geometry":{"type":"Point","coordinates":[-115.152528,44.680166]}},{"type":"Feature","properties":{"name":"Tumble Creek Campsite","category":"camp","kind":"camp","distance_from_putin_mi":0.0,"river_mi":0.0,"grade":null,"description":null,"source":"curated"},"geometry":{"type":"Point","coordinates":[-114.681011,45.222934]}},{"type":"Feature","properties":{"name":"Pistol Creek Campsite","category":"camp","kind":"camp","distance_from_putin_mi":0.0,"river_mi":0.0,"grade":null,"description":null,"source":"curated"},"geometry":{"type":"Point","coordinates":[-115.150023,44.72289]}},{"type":"Feature","properties":{"name":"Tiny Tappan Campsite","category":"camp","kind":"camp","distance_from_putin_mi":0.0,"river_mi":0.0,"grade":null,"description":null,"source":"curated"},"geometry":{"type":"Point","coordinates":[-114.754866,44.872832]}},{"type":"Feature","properties":{"name":"Rapid Campsite","category":"camp","kind":"camp","distance_from_putin_mi":0.0,"river_mi":0.0,"grade":null,"description":null,"source":"curated"},"geometry":{"type":"Point","coordinates":[-115.247607,44.618688]}},{"type":"Feature","properties":{"name":"Marble Creek Right Campsite","category":"camp","kind":"camp","distance_from_putin_mi":0.0,"river_mi":0.0,"grade":null,"description":null,"source":"curated"},"geometry":{"type":"Point","coordinates":[-115.017612,44.74306]}},{"type":"Feature","properties":{"name":"Weber Rapids","category":"rapid","kind":"rapid","distance_from_putin_mi":0.0,"river_mi":0.0,"grade":"III-IV","description":null,"source":"curated"},"geometry":{"type":"Point","coordinates":[-114.727478,45.156465]}},{"type":"Feature","properties":{"name":"Redside Rapids","category":"rapid","kind":"rapid","distance_from_putin_mi":0.0,"river_mi":0.0,"grade":"III-IV","description":null,"source":"curated"},"geometry":{"type":"Point","coordinates":[-114.73191,45.151596]}},{"type":"Feature","properties":{"name":"Marble Creek Left Campsite","category":"camp","kind":"camp","distance_from_putin_mi":0.0,"river_mi":0.0,"grade":null,"description":null,"source":"curated"},"geometry":{"type":"Point","coordinates":[-115.021866,44.743754]}},{"type":"Feature","properties":{"name":"Hospital Bar Campsite","category":"camp","kind":"camp","distance_from_putin_mi":0.0,"river_mi":0.0,"grade":null,"description":null,"source":"curated"},"geometry":{"type":"Point","coordinates":[-114.78948,44.834071]}},{"type":"Feature","properties":{"name":"Big Pine Rapids","category":"rapid","kind":"rapid","distance_from_putin_mi":0.0,"river_mi":0.0,"grade":"II-III","description":null,"source":"curated"},"geometry":{"type":"Point","coordinates":[-114.725934,45.110175]}},{"type":"Feature","properties":{"name":"The Chutes","category":"rapid","kind":"rapid","distance_from_putin_mi":0.0,"river_mi":0.0,"grade":"III-III+","description":null,"source":"curated"},"geometry":{"type":"Point","coordinates":[-115.259381,44.608045]}},{"type":"Feature","properties":{"name":"Nugget Creek Falls","category":"hazard","kind":"hazard","distance_from_putin_mi":0.0,"river_mi":0.0,"grade":null,"description":null,"source":"curated"},"geometry":{"type":"Point","coordinates":[-114.687052,45.210547]}},{"type":"Feature","properties":{"name":"Sheep Creek Campsite","category":"camp","kind":"camp","distance_from_putin_mi":0.0,"river_mi":0.0,"grade":null,"description":null,"source":"curated"},"geometry":{"type":"Point","coordinates":[-114.727993,44.942229]}},{"type":"Feature","properties":{"name":"Devils Tooth Rapids","category":"rapid","kind":"rapid","distance_from_putin_mi":0.0,"river_mi":0.0,"grade":"III-IV","description":null,"source":"curated"},"geometry":{"type":"Point","coordinates":[-114.625656,45.272912]}},{"type":"Feature","properties":{"name":"Veil Cave Rapids","category":"rapid","kind":"rapid","distance_from_putin_mi":0.0,"river_mi":0.0,"grade":"II","description":null,"source":"curated"},"geometry":{"type":"Point","coordinates":[-114.722908,45.124589]}},{"type":"Feature","properties":{"name":"Fly Campsite","category":"camp","kind":"camp","distance_from_putin_mi":0.0,"river_mi":0.0,"grade":null,"description":null,"source":"curated"},"geometry":{"type":"Point","coordinates":[-114.725705,45.067647]}},{"type":"Feature","properties":{"name":"Boundary Creek Put-in","category":"access","kind":"putin","distance_from_putin_mi":0.0,"river_mi":0.0,"grade":null,"description":null,"source":"curated"},"geometry":{"type":"Point","coordinates":[-115.294245,44.531894]}},{"type":"Feature","properties":{"name":"Little Creek Campsite","category":"camp","kind":"camp","distance_from_putin_mi":0.0,"river_mi":0.0,"grade":null,"description":null,"source":"curated"},"geometry":{"type":"Point","coordinates":[-114.994883,44.727844]}},{"type":"Feature","properties":{"name":"Hancock Rapids","category":"rapid","kind":"rapid","distance_from_putin_mi":0.0,"river_mi":0.0,"grade":"III","description":null,"source":"curated"},"geometry":{"type":"Point","coordinates":[-114.645371,45.259915]}},{"type":"Feature","properties":{"name":"Pistol Creek Rapids Stage 1","category":"rapid","kind":"rapid","distance_from_putin_mi":0.0,"river_mi":0.0,"grade":"III-IV","description":null,"source":"curated"},"geometry":{"type":"Point","coordinates":[-115.148584,44.722402]}},{"type":"Feature","properties":{"name":"Pungo Creek Campsite","category":"camp","kind":"camp","distance_from_putin_mi":0.0,"river_mi":0.0,"grade":null,"description":null,"source":"curated"},"geometry":{"type":"Point","coordinates":[-115.074185,44.765288]}},{"type":"Feature","properties":{"name":"Spring Campsite","category":"camp","kind":"camp","distance_from_putin_mi":0.0,"river_mi":0.0,"grade":null,"description":null,"source":"curated"},"geometry":{"type":"Point","coordinates":[-115.302458,44.571283]}},{"type":"Feature","properties":{"name":"Tappan Island Campsite","category":"camp","kind":"camp","distance_from_putin_mi":0.0,"river_mi":0.0,"grade":null,"description":null,"source":"curated"},"geometry":{"type":"Point","coordinates":[-114.760109,44.874488]}},{"type":"Feature","properties":{"name":"Canon Creek Rapids","category":"rapid","kind":"rapid","distance_from_putin_mi":0.0,"river_mi":0.0,"grade":"III","description":null,"source":"curated"},"geometry":{"type":"Point","coordinates":[-115.14942,44.699229]}},{"type":"Feature","properties":{"name":"Lake Creek Campsite","category":"camp","kind":"camp","distance_from_putin_mi":0.0,"river_mi":0.0,"grade":null,"description":null,"source":"curated"},"geometry":{"type":"Point","coordinates":[-115.180267,44.643002]}},{"type":"Feature","properties":{"name":"Parrot Placer Campsite","category":"camp","kind":"camp","distance_from_putin_mi":0.0,"river_mi":0.0,"grade":null,"description":null,"source":"curated"},"geometry":{"type":"Point","coordinates":[-114.697528,45.190714]}},{"type":"Feature","properties":{"name":"Murph's Hole Rapids","category":"rapid","kind":"rapid","distance_from_putin_mi":0.0,"river_mi":0.0,"grade":"III-IV","description":null,"source":"curated"},"geometry":{"type":"Point","coordinates":[-115.290404,44.543138]}},{"type":"Feature","properties":{"name":"Survey Campsite","category":"camp","kind":"camp","distance_from_putin_mi":0.0,"river_mi":0.0,"grade":null,"description":null,"source":"curated"},"geometry":{"type":"Point","coordinates":[-114.723494,45.055872]}},{"type":"Feature","properties":{"name":"Dolly Lake Campsite","category":"camp","kind":"camp","distance_from_putin_mi":0.0,"river_mi":0.0,"grade":null,"description":null,"source":"curated"},"geometry":{"type":"Point","coordinates":[-115.147214,44.694397]}},{"type":"Feature","properties":{"name":"Greyhound Rapids","category":"rapid","kind":"rapid","distance_from_putin_mi":0.0,"river_mi":0.0,"grade":"II-III","description":null,"source":"curated"},"geometry":{"type":"Point","coordinates":[-115.166768,44.650333]}},{"type":"Feature","properties":{"name":"Love Bar Campsite","category":"camp","kind":"camp","distance_from_putin_mi":0.0,"river_mi":0.0,"grade":null,"description":null,"source":"curated"},"geometry":{"type":"Point","coordinates":[-114.725976,45.116044]}},{"type":"Feature","properties":{"name":"Teepee Hole Campsite","category":"camp","kind":"camp","distance_from_putin_mi":0.0,"river_mi":0.0,"grade":null,"description":null,"source":"curated"},"geometry":{"type":"Point","coordinates":[-115.294588,44.54521]}},{"type":"Feature","properties":{"name":"Saddle Campsite","category":"camp","kind":"camp","distance_from_putin_mi":0.0,"river_mi":0.0,"grade":null,"description":null,"source":"curated"},"geometry":{"type":"Point","coordinates":[-115.238299,44.621762]}},{"type":"Feature","properties":{"name":"Rock Island Campsite","category":"camp","kind":"camp","distance_from_putin_mi":0.0,"river_mi":0.0,"grade":null,"description":null,"source":"curated"},"geometry":{"type":"Point","coordinates":[-114.853617,44.782479]}},{"type":"Feature","properties":{"name":"Veil Falls","category":"hazard","kind":"hazard","distance_from_putin_mi":0.0,"river_mi":0.0,"grade":null,"description":null,"source":"curated"},"geometry":{"type":"Point","coordinates":[-114.724313,45.127551]}},{"type":"Feature","properties":{"name":"Tappan Falls Campsite","category":"camp","kind":"camp","distance_from_putin_mi":0.0,"river_mi":0.0,"grade":null,"description":null,"source":"curated"},"geometry":{"type":"Point","coordinates":[-114.75051,44.879437]}},{"type":"Feature","properties":{"name":"Big Snag Campsite","category":"camp","kind":"camp","distance_from_putin_mi":0.0,"river_mi":0.0,"grade":null,"description":null,"source":"curated"},"geometry":{"type":"Point","coordinates":[-115.149507,44.69626]}},{"type":"Feature","properties":{"name":"Shelf Campsite","category":"camp","kind":"camp","distance_from_putin_mi":0.0,"river_mi":0.0,"grade":null,"description":null,"source":"curated"},"geometry":{"type":"Point","coordinates":[-114.833575,44.802202]}},{"type":"Feature","properties":{"name":"John's Campsite","category":"camp","kind":"camp","distance_from_putin_mi":0.0,"river_mi":0.0,"grade":null,"description":null,"source":"curated"},"geometry":{"type":"Point","coordinates":[-115.177515,44.645418]}},{"type":"Feature","properties":{"name":"White Creek Campsite","category":"camp","kind":"camp","distance_from_putin_mi":0.0,"river_mi":0.0,"grade":null,"description":null,"source":"curated"},"geometry":{"type":"Point","coordinates":[-114.841386,44.792884]}},{"type":"Feature","properties":{"name":"Wollard Campsite","category":"camp","kind":"camp","distance_from_putin_mi":0.0,"river_mi":0.0,"grade":null,"description":null,"source":"curated"},"geometry":{"type":"Point","coordinates":[-114.723883,45.057429]}},{"type":"Feature","properties":{"name":"Greyhound Campsite","category":"camp","kind":"camp","distance_from_putin_mi":0.0,"river_mi":0.0,"grade":null,"description":null,"source":"curated"},"geometry":{"type":"Point","coordinates":[-115.166765,44.649954]}},{"type":"Feature","properties":{"name":"Flying B Campsite","category":"camp","kind":"camp","distance_from_putin_mi":0.0,"river_mi":0.0,"grade":null,"description":null,"source":"curated"},"geometry":{"type":"Point","coordinates":[-114.733888,44.957806]}},{"type":"Feature","properties":{"name":"Normandy Campsite","category":"camp","kind":"camp","distance_from_putin_mi":0.0,"river_mi":0.0,"grade":null,"description":null,"source":"curated"},"geometry":{"type":"Point","coordinates":[-114.734459,44.928051]}},{"type":"Feature","properties":{"name":"Big Creek Campsite","category":"camp","kind":"camp","distance_from_putin_mi":0.0,"river_mi":0.0,"grade":null,"description":null,"source":"curated"},"geometry":{"type":"Point","coordinates":[-114.73362,45.094455]}},{"type":"Feature","properties":{"name":"Stateland Left Campsite","category":"camp","kind":"camp","distance_from_putin_mi":0.0,"river_mi":0.0,"grade":null,"description":null,"source":"curated"},"geometry":{"type":"Point","coordinates":[-115.003488,44.720076]}},{"type":"Feature","properties":{"name":"Rubber Rapids","category":"rapid","kind":"rapid","distance_from_putin_mi":0.0,"river_mi":0.0,"grade":"III-IV","description":null,"source":"curated"},"geometry":{"type":"Point","coordinates":[-114.657349,45.250174]}},{"type":"Feature","properties":{"name":"Cable Hole Campsite","category":"camp","kind":"camp","distance_from_putin_mi":0.0,"river_mi":0.0,"grade":null,"description":null,"source":"curated"},"geometry":{"type":"Point","coordinates":[-115.298043,44.552168]}},{"type":"Feature","properties":{"name":"Cold Spring Creek Campsite","category":"camp","kind":"camp","distance_from_putin_mi":0.0,"river_mi":0.0,"grade":null,"description":null,"source":"curated"},"geometry":{"type":"Point","coordinates":[-114.728736,44.999556]}},{"type":"Feature","properties":{"name":"Whitie Cox Campsite","category":"camp","kind":"camp","distance_from_putin_mi":0.0,"river_mi":0.0,"grade":null,"description":null,"source":"curated"},"geometry":{"type":"Point","coordinates":[-114.856234,44.7834]}},{"type":"Feature","properties":{"name":"Parrot's Cabin Campsite","category":"camp","kind":"camp","distance_from_putin_mi":0.0,"river_mi":0.0,"grade":null,"description":null,"source":"curated"},"geometry":{"type":"Point","coordinates":[-114.684613,45.2104]}},{"type":"Feature","properties":{"name":"Thimbleberry Campsite","category":"camp","kind":"camp","distance_from_putin_mi":0.0,"river_mi":0.0,"grade":null,"description":null,"source":"curated"},"geometry":{"type":"Point","coordinates":[-115.203838,44.625496]}},{"type":"Feature","properties":{"name":"House Of Rocks Rapids","category":"rapid","kind":"rapid","distance_from_putin_mi":0.0,"river_mi":0.0,"grade":"III-IV","description":null,"source":"curated"},"geometry":{"type":"Point","coordinates":[-114.623226,45.27503]}},{"type":"Feature","properties":{"name":"Big Loon Access","category":"access","kind":"boat_ramp","distance_from_putin_mi":0.0,"river_mi":0.0,"grade":null,"description":null,"source":"curated"},"geometry":{"type":"Point","coordinates":[-114.812161,44.808201]}},{"type":"Feature","properties":{"name":"Cache Bar Boat Ramp","category":"access","kind":"takeout","distance_from_putin_mi":0.0,"river_mi":0.0,"grade":null,"description":null,"source":"curated"},"geometry":{"type":"Point","coordinates":[-114.636713,45.31856]}},{"type":"Feature","properties":{"name":"Little Soldier Campsite","category":"camp","kind":"camp","distance_from_putin_mi":0.0,"river_mi":0.0,"grade":null,"description":null,"source":"curated"},"geometry":{"type":"Point","coordinates":[-115.031356,44.735203]}},{"type":"Feature","properties":{"name":"Papoose Campsite","category":"camp","kind":"camp","distance_from_putin_mi":0.0,"river_mi":0.0,"grade":null,"description":null,"source":"curated"},"geometry":{"type":"Point","coordinates":[-114.720938,45.174981]}},{"type":"Feature","properties":{"name":"Culver Creek Campsite","category":"camp","kind":"camp","distance_from_putin_mi":0.0,"river_mi":0.0,"grade":null,"description":null,"source":"curated"},"geometry":{"type":"Point","coordinates":[-114.86834,44.779168]}},{"type":"Feature","properties":{"name":"Pistol Creek Rapids Stage 2","category":"rapid","kind":"rapid","distance_from_putin_mi":0.0,"river_mi":0.0,"grade":"III-IV","description":null,"source":"curated"},"geometry":{"type":"Point","coordinates":[-115.150936,44.730185]}},{"type":"Feature","properties":{"name":"Big Pine Campsite","category":"camp","kind":"camp","distance_from_putin_mi":0.0,"river_mi":0.0,"grade":null,"description":null,"source":"curated"},"geometry":{"type":"Point","coordinates":[-114.726413,45.109092]}},{"type":"Feature","properties":{"name":"Wilson Creek Campsite","category":"camp","kind":"camp","distance_from_putin_mi":0.0,"river_mi":0.0,"grade":null,"description":null,"source":"curated"},"geometry":{"type":"Point","coordinates":[-114.723411,45.033407]}},{"type":"Feature","properties":{"name":"Ouzel Rapids","category":"rapid","kind":"rapid","distance_from_putin_mi":0.0,"river_mi":0.0,"grade":"II-III","description":null,"source":"curated"},"geometry":{"type":"Point","coordinates":[-114.666832,45.235559]}},{"type":"Feature","properties":{"name":"Confluence Takeout","category":"note","kind":"note","distance_from_putin_mi":0.0,"river_mi":0.0,"grade":null,"description":"Alternate exit at the MFS / Main Salmon confluence. Most parties continue ~3 river miles to Cache Bar (the official take-out).","source":"curated"},"geometry":{"type":"Point","coordinates":[-114.595609,45.299068]}},{"type":"Feature","properties":{"name":"Golden Creek Falls","category":"hazard","kind":"hazard","distance_from_putin_mi":0.0,"river_mi":0.0,"grade":null,"description":null,"source":"curated"},"geometry":{"type":"Point","coordinates":[-114.734827,45.152468]}},{"type":"Feature","properties":{"name":"Camas Creek Campsite","category":"camp","kind":"camp","distance_from_putin_mi":0.0,"river_mi":0.0,"grade":null,"description":null,"source":"curated"},"geometry":{"type":"Point","coordinates":[-114.722508,44.891668]}},{"type":"Feature","properties":{"name":"Big Loon Campsite","category":"camp","kind":"camp","distance_from_putin_mi":0.0,"river_mi":0.0,"grade":null,"description":null,"source":"curated"},"geometry":{"type":"Point","coordinates":[-114.811739,44.808197]}},{"type":"Feature","properties":{"name":"Redside Campsite","category":"camp","kind":"camp","distance_from_putin_mi":0.0,"river_mi":0.0,"grade":null,"description":null,"source":"curated"},"geometry":{"type":"Point","coordinates":[-114.731405,45.149517]}},{"type":"Feature","properties":{"name":"Porcupine Rapids","category":"rapid","kind":"rapid","distance_from_putin_mi":0.0,"river_mi":0.0,"grade":"II","description":null,"source":"curated"},"geometry":{"type":"Point","coordinates":[-114.726849,45.129274]}},{"type":"Feature","properties":{"name":"Cliffside Rapids","category":"rapid","kind":"rapid","distance_from_putin_mi":0.0,"river_mi":0.0,"grade":"III","description":null,"source":"curated"},"geometry":{"type":"Point","coordinates":[-114.683801,45.219994]}},{"type":"Feature","properties":{"name":"Sulphur Slide Rapid","category":"rapid","kind":"rapid","distance_from_putin_mi":0.0,"river_mi":0.0,"grade":"III-IV","description":null,"source":"curated"},"geometry":{"type":"Point","coordinates":[-115.300982,44.568611]}},{"type":"Feature","properties":{"name":"Upper Jackass Flat Campsite","category":"camp","kind":"camp","distance_from_putin_mi":0.0,"river_mi":0.0,"grade":null,"description":null,"source":"curated"},"geometry":{"type":"Point","coordinates":[-114.970711,44.724704]}},{"type":"Feature","properties":{"name":"Tappan I Rapids","category":"rapid","kind":"rapid","distance_from_putin_mi":0.0,"river_mi":0.0,"grade":"II-III","description":null,"source":"curated"},"geometry":{"type":"Point","coordinates":[-114.752675,44.87809]}},{"type":"Feature","properties":{"name":"Sunflower Flat Campsite","category":"camp","kind":"camp","distance_from_putin_mi":0.0,"river_mi":0.0,"grade":null,"description":null,"source":"curated"},"geometry":{"type":"Point","coordinates":[-115.018959,44.730485]}},{"type":"Feature","properties":{"name":"Dome Hole Campsite","category":"camp","kind":"camp","distance_from_putin_mi":0.0,"river_mi":0.0,"grade":null,"description":null,"source":"curated"},"geometry":{"type":"Point","coordinates":[-115.165611,44.65096]}},{"type":"Feature","properties":{"name":"Mahoney Campsite","category":"camp","kind":"camp","distance_from_putin_mi":0.0,"river_mi":0.0,"grade":null,"description":null,"source":"curated"},"geometry":{"type":"Point","coordinates":[-114.916555,44.750808]}},{"type":"Feature","properties":{"name":"Boy Scout Campsite","category":"camp","kind":"camp","distance_from_putin_mi":0.0,"river_mi":0.0,"grade":null,"description":null,"source":"curated"},"geometry":{"type":"Point","coordinates":[-115.289401,44.598638]}},{"type":"Feature","properties":{"name":"Cave Campsite","category":"camp","kind":"camp","distance_from_putin_mi":0.0,"river_mi":0.0,"grade":null,"description":null,"source":"curated"},"geometry":{"type":"Point","coordinates":[-114.792484,44.835878]}},{"type":"Feature","properties":{"name":"Lightning Strike Campsite","category":"camp","kind":"camp","distance_from_putin_mi":0.0,"river_mi":0.0,"grade":null,"description":null,"source":"curated"},"geometry":{"type":"Point","coordinates":[-114.719514,45.183375]}},{"type":"Feature","properties":{"name":"Pine Creek Flat Campsite","category":"camp","kind":"camp","distance_from_putin_mi":0.0,"river_mi":0.0,"grade":null,"description":null,"source":"curated"},"geometry":{"type":"Point","coordinates":[-114.895751,44.760196]}},{"type":"Feature","properties":{"name":"Flying B Airport Campsite","category":"camp","kind":"camp","distance_from_putin_mi":0.0,"river_mi":0.0,"grade":null,"description":null,"source":"curated"},"geometry":{"type":"Point","coordinates":[-114.729881,44.968688]}},{"type":"Feature","properties":{"name":"Artillery Rapids","category":"rapid","kind":"rapid","distance_from_putin_mi":0.0,"river_mi":0.0,"grade":"III","description":null,"source":"curated"},"geometry":{"type":"Point","coordinates":[-115.156323,44.670661]}},{"type":"Feature","properties":{"name":"Indian Creek Beach Campsite","category":"camp","kind":"camp","distance_from_putin_mi":0.0,"river_mi":0.0,"grade":null,"description":null,"source":"curated"},"geometry":{"type":"Point","coordinates":[-115.114366,44.757034]}},{"type":"Feature","properties":{"name":"Cradle Creek Campsite","category":"camp","kind":"camp","distance_from_putin_mi":0.0,"river_mi":0.0,"grade":null,"description":null,"source":"curated"},"geometry":{"type":"Point","coordinates":[-114.683176,45.219877]}},{"type":"Feature","properties":{"name":"Elkhorn Bar Campsite","category":"camp","kind":"camp","distance_from_putin_mi":0.0,"river_mi":0.0,"grade":null,"description":null,"source":"curated"},"geometry":{"type":"Point","coordinates":[-115.250316,44.616706]}},{"type":"Feature","properties":{"name":"Hells Half Mile Rapids","category":"rapid","kind":"rapid","distance_from_putin_mi":0.0,"river_mi":0.0,"grade":"III-IV","description":null,"source":"curated"},"geometry":{"type":"Point","coordinates":[-115.295233,44.587874]}},{"type":"Feature","properties":{"name":"Pool Campsite","category":"camp","kind":"camp","distance_from_putin_mi":0.0,"river_mi":0.0,"grade":null,"description":null,"source":"curated"},"geometry":{"type":"Point","coordinates":[-114.728642,44.905017]}},{"type":"Feature","properties":{"name":"Tappan II Rapids","category":"rapid","kind":"rapid","distance_from_putin_mi":0.0,"river_mi":0.0,"grade":"II-III","description":null,"source":"curated"},"geometry":{"type":"Point","coordinates":[-114.740869,44.879574]}},{"type":"Feature","properties":{"name":"Solitude Campsite","category":"camp","kind":"camp","distance_from_putin_mi":0.0,"river_mi":0.0,"grade":null,"description":null,"source":"curated"},"geometry":{"type":"Point","coordinates":[-114.635384,45.26575]}},{"type":"Feature","properties":{"name":"Boot Campsite","category":"camp","kind":"camp","distance_from_putin_mi":0.0,"river_mi":0.0,"grade":null,"description":null,"source":"curated"},"geometry":{"type":"Point","coordinates":[-115.235547,44.621235]}},{"type":"Feature","properties":{"name":"White Creek Rapids","category":"rapid","kind":"rapid","distance_from_putin_mi":0.0,"river_mi":0.0,"grade":"II-III","description":null,"source":"curated"},"geometry":{"type":"Point","coordinates":[-114.841683,44.790816]}},{"type":"Feature","properties":{"name":"Short Creek Campsite","category":"camp","kind":"camp","distance_from_putin_mi":0.0,"river_mi":0.0,"grade":null,"description":null,"source":"curated"},"geometry":{"type":"Point","coordinates":[-114.733078,44.983666]}},{"type":"Feature","properties":{"name":"Cradle Creek Campsite","category":"camp","kind":"camp","distance_from_putin_mi":0.0,"river_mi":0.0,"grade":null,"description":null,"source":"curated"},"geometry":{"type":"Point","coordinates":[-114.672643,45.234246]}},{"type":"Feature","properties":{"name":"Bernard Creek Campsite","category":"camp","kind":"camp","distance_from_putin_mi":0.0,"river_mi":0.0,"grade":null,"description":null,"source":"curated"},"geometry":{"type":"Point","coordinates":[-114.734521,44.982778]}},{"type":"Feature","properties":{"name":"Stoddard Campsite","category":"camp","kind":"camp","distance_from_putin_mi":0.0,"river_mi":0.0,"grade":null,"description":null,"source":"curated"},"geometry":{"type":"Point","coordinates":[-114.665894,45.236304]}},{"type":"Feature","properties":{"name":"Aparejo Rapids","category":"rapid","kind":"rapid","distance_from_putin_mi":0.0,"river_mi":0.0,"grade":"II-III","description":null,"source":"curated"},"geometry":{"type":"Point","coordinates":[-114.730556,44.920731]}},{"type":"Feature","properties":{"name":"Tappan IV Rapids","category":"rapid","kind":"rapid","distance_from_putin_mi":0.0,"river_mi":0.0,"grade":"II-III","description":null,"source":"curated"},"geometry":{"type":"Point","coordinates":[-114.73208,44.880579]}},{"type":"Feature","properties":{"name":"Cramer Creek Rapids","category":"rapid","kind":"rapid","distance_from_putin_mi":0.0,"river_mi":0.0,"grade":"III-IV","description":null,"source":"curated"},"geometry":{"type":"Point","coordinates":[-114.626667,45.309778]}},{"type":"Feature","properties":{"name":"Gardells Hole Campsite","category":"camp","kind":"camp","distance_from_putin_mi":0.0,"river_mi":0.0,"grade":null,"description":null,"source":"curated"},"geometry":{"type":"Point","coordinates":[-115.300822,44.566781]}},{"type":"Feature","properties":{"name":"Haystack Rapids","category":"rapid","kind":"rapid","distance_from_putin_mi":0.0,"river_mi":0.0,"grade":"III","description":null,"source":"curated"},"geometry":{"type":"Point","coordinates":[-114.73604,44.973931]}},{"type":"Feature","properties":{"name":"Shelf Rapids","category":"rapid","kind":"rapid","distance_from_putin_mi":0.0,"river_mi":0.0,"grade":"II-III","description":null,"source":"curated"},"geometry":{"type":"Point","coordinates":[-114.835022,44.800908]}},{"type":"Feature","properties":{"name":"Grassy Flat Campsite II","category":"camp","kind":"camp","distance_from_putin_mi":0.0,"river_mi":0.0,"grade":null,"description":null,"source":"curated"},"geometry":{"type":"Point","coordinates":[-114.72579,45.037821]}},{"type":"Feature","properties":{"name":"Elk Bar Campsite","category":"camp","kind":"camp","distance_from_putin_mi":0.0,"river_mi":0.0,"grade":null,"description":null,"source":"curated"},"geometry":{"type":"Point","coordinates":[-114.726339,45.114219]}},{"type":"Feature","properties":{"name":"Ramshorn Rapids","category":"rapid","kind":"rapid","distance_from_putin_mi":0.0,"river_mi":0.0,"grade":"III","description":null,"source":"curated"},"geometry":{"type":"Point","coordinates":[-115.304579,44.580157]}},{"type":"Feature","properties":{"name":"Fish Campsite","category":"camp","kind":"camp","distance_from_putin_mi":0.0,"river_mi":0.0,"grade":null,"description":null,"source":"curated"},"geometry":{"type":"Point","coordinates":[-114.72346,45.089149]}},{"type":"Feature","properties":{"name":"Ouzel Campsite","category":"camp","kind":"camp","distance_from_putin_mi":0.0,"river_mi":0.0,"grade":null,"description":null,"source":"curated"},"geometry":{"type":"Point","coordinates":[-114.673721,45.23496]}},{"type":"Feature","properties":{"name":"Cub Creek Campsite","category":"camp","kind":"camp","distance_from_putin_mi":0.0,"river_mi":0.0,"grade":null,"description":null,"source":"curated"},"geometry":{"type":"Point","coordinates":[-114.779231,44.841012]}},{"type":"Feature","properties":{"name":"Ship Island Campsite","category":"camp","kind":"camp","distance_from_putin_mi":0.0,"river_mi":0.0,"grade":null,"description":null,"source":"curated"},"geometry":{"type":"Point","coordinates":[-114.721899,45.176304]}},{"type":"Feature","properties":{"name":"Jackass Rapid","category":"rapid","kind":"rapid","distance_from_putin_mi":0.0,"river_mi":0.0,"grade":"II-III","description":null,"source":"curated"},"geometry":{"type":"Point","coordinates":[-114.970599,44.725509]}},{"type":"Feature","properties":{"name":"Otter Bar Campsite","category":"camp","kind":"camp","distance_from_putin_mi":0.0,"river_mi":0.0,"grade":null,"description":null,"source":"curated"},"geometry":{"type":"Point","coordinates":[-114.662372,45.238349]}},{"type":"Feature","properties":{"name":"Powerhouse Rapids","category":"rapid","kind":"rapid","distance_from_putin_mi":0.0,"river_mi":0.0,"grade":"III-IV","description":null,"source":"curated"},"geometry":{"type":"Point","coordinates":[-115.220025,44.629282]}},{"type":"Feature","properties":{"name":"Velvet Falls","category":"rapid","kind":"rapid","distance_from_putin_mi":0.0,"river_mi":0.0,"grade":"IV","description":null,"source":"curated"},"geometry":{"type":"Point","coordinates":[-115.291097,44.595227]}},{"type":"Feature","properties":{"name":"Lower Jackass Flat Campsite","category":"camp","kind":"camp","distance_from_putin_mi":0.0,"river_mi":0.0,"grade":null,"description":null,"source":"curated"},"geometry":{"type":"Point","coordinates":[-114.96252,44.722329]}},{"type":"Feature","properties":{"name":"Driftwood Campsite","category":"camp","kind":"camp","distance_from_putin_mi":0.0,"river_mi":0.0,"grade":null,"description":null,"source":"curated"},"geometry":{"type":"Point","coordinates":[-114.725761,45.021077]}},{"type":"Feature","properties":{"name":"Upper Grouse Campsite","category":"camp","kind":"camp","distance_from_putin_mi":0.0,"river_mi":0.0,"grade":null,"description":null,"source":"curated"},"geometry":{"type":"Point","coordinates":[-114.768124,44.870249]}},{"type":"Feature","properties":{"name":"Grassy Flat Campsite I","category":"camp","kind":"camp","distance_from_putin_mi":0.0,"river_mi":0.0,"grade":null,"description":null,"source":"curated"},"geometry":{"type":"Point","coordinates":[-114.726437,45.034885]}},{"type":"Feature","properties":{"name":"Last Chance Campsite","category":"camp","kind":"camp","distance_from_putin_mi":0.0,"river_mi":0.0,"grade":null,"description":null,"source":"curated"},"geometry":{"type":"Point","coordinates":[-114.731525,45.096305]}},{"type":"Feature","properties":{"name":"Hood Ranch Campsite","category":"camp","kind":"camp","distance_from_putin_mi":0.0,"river_mi":0.0,"grade":null,"description":null,"source":"curated"},"geometry":{"type":"Point","coordinates":[-114.994556,44.728808]}},{"type":"Feature","properties":{"name":"Jack Creek Rapids","category":"rapid","kind":"rapid","distance_from_putin_mi":0.0,"river_mi":0.0,"grade":"II-III","description":null,"source":"curated"},"geometry":{"type":"Point","coordinates":[-114.820916,44.805369]}},{"type":"Feature","properties":{"name":"Big Bend Campsite","category":"camp","kind":"camp","distance_from_putin_mi":0.0,"river_mi":0.0,"grade":null,"description":null,"source":"curated"},"geometry":{"type":"Point","coordinates":[-115.279391,44.611765]}},{"type":"Feature","properties":{"name":"Trail Flat Campsite","category":"camp","kind":"camp","distance_from_putin_mi":0.0,"river_mi":0.0,"grade":null,"description":null,"source":"curated"},"geometry":{"type":"Point","coordinates":[-115.269094,44.608805]}},{"type":"Feature","properties":{"name":"Pine Bluff Campsite","category":"camp","kind":"camp","distance_from_putin_mi":0.0,"river_mi":0.0,"grade":null,"description":null,"source":"curated"},"geometry":{"type":"Point","coordinates":[-114.730916,45.103872]}},{"type":"Feature","properties":{"name":"Airplane Campsite","category":"camp","kind":"camp","distance_from_putin_mi":0.0,"river_mi":0.0,"grade":null,"description":null,"source":"curated"},"geometry":{"type":"Point","coordinates":[-115.119714,44.753854]}},{"type":"Feature","properties":{"name":"Cutthroat Cove Campsite","category":"camp","kind":"camp","distance_from_putin_mi":0.0,"river_mi":0.0,"grade":null,"description":null,"source":"curated"},"geometry":{"type":"Point","coordinates":[-114.73142,45.106337]}},{"type":"Feature","properties":{"name":"Trail Campsite","category":"camp","kind":"camp","distance_from_putin_mi":0.0,"river_mi":0.0,"grade":null,"description":null,"source":"curated"},"geometry":{"type":"Point","coordinates":[-114.728006,44.928957]}},{"type":"Feature","properties":{"name":"Stateland Right Campsite","category":"camp","kind":"camp","distance_from_putin_mi":0.0,"river_mi":0.0,"grade":null,"description":null,"source":"curated"},"geometry":{"type":"Point","coordinates":[-115.005161,44.719566]}},{"type":"Feature","properties":{"name":"Sheepeater Campsite","category":"camp","kind":"camp","distance_from_putin_mi":0.0,"river_mi":0.0,"grade":null,"description":null,"source":"curated"},"geometry":{"type":"Point","coordinates":[-115.19694,44.627649]}},{"type":"Feature","properties":{"name":"Tappan III Rapids","category":"rapid","kind":"rapid","distance_from_putin_mi":0.0,"river_mi":0.0,"grade":"II-III","description":null,"source":"curated"},"geometry":{"type":"Point","coordinates":[-114.737663,44.878933]}},{"type":"Feature","properties":{"name":"Oakie Point Campsite","category":"camp","kind":"camp","distance_from_putin_mi":0.0,"river_mi":0.0,"grade":null,"description":null,"source":"curated"},"geometry":{"type":"Point","coordinates":[-115.16832,44.647849]}},{"type":"Feature","properties":{"name":"Indian Creek Campsite","category":"camp","kind":"camp","distance_from_putin_mi":0.0,"river_mi":0.0,"grade":null,"description":null,"source":"curated"},"geometry":{"type":"Point","coordinates":[-115.090885,44.769824]}},{"type":"Feature","properties":{"name":"Lost Oak Campsite","category":"camp","kind":"camp","distance_from_putin_mi":0.0,"river_mi":0.0,"grade":null,"description":null,"source":"curated"},"geometry":{"type":"Point","coordinates":[-115.017644,44.731046]}},{"type":"Feature","properties":{"name":"Anderson Campsite","category":"camp","kind":"camp","distance_from_putin_mi":0.0,"river_mi":0.0,"grade":null,"description":null,"source":"curated"},"geometry":{"type":"Point","coordinates":[-115.075521,44.766176]}},{"type":"Feature","properties":{"name":"Johnny Walker Campsite","category":"camp","kind":"camp","distance_from_putin_mi":0.0,"river_mi":0.0,"grade":null,"description":null,"source":"curated"},"geometry":{"type":"Point","coordinates":[-114.730326,44.898881]}},{"type":"Feature","properties":{"name":"Tappan Falls","category":"rapid","kind":"rapid","distance_from_putin_mi":0.0,"river_mi":0.0,"grade":"III-IV","description":null,"source":"curated"},"geometry":{"type":"Point","coordinates":[-114.749578,44.879106]}},{"type":"Feature","properties":{"name":"Lower Grouse Campsite","category":"camp","kind":"camp","distance_from_putin_mi":0.0,"river_mi":0.0,"grade":null,"description":null,"source":"curated"},"geometry":{"type":"Point","coordinates":[-114.768015,44.872262]}},{"type":"Feature","properties":{"name":"Fire Island Campsite","category":"camp","kind":"camp","distance_from_putin_mi":0.0,"river_mi":0.0,"grade":null,"description":null,"source":"curated"},"geometry":{"type":"Point","coordinates":[-115.190095,44.636399]}},{"type":"Feature","properties":{"name":"Broken Oar Campsite","category":"camp","kind":"camp","distance_from_putin_mi":0.0,"river_mi":0.0,"grade":null,"description":null,"source":"curated"},"geometry":{"type":"Point","coordinates":[-114.732126,44.910958]}},{"type":"Feature","properties":{"name":"Lower Cliffside Rapids","category":"rapid","kind":"rapid","distance_from_putin_mi":0.0,"river_mi":0.0,"grade":"III","description":null,"source":"curated"},"geometry":{"type":"Point","coordinates":[-114.681226,45.222226]}},{"type":"Feature","properties":{"name":"Scout Campsite","category":"camp","kind":"camp","distance_from_putin_mi":0.0,"river_mi":0.0,"grade":null,"description":null,"source":"curated"},"geometry":{"type":"Point","coordinates":[-115.198544,44.624622]}},{"type":"Feature","properties":{"name":"First Bend Rapid","category":"rapid","kind":"rapid","distance_from_putin_mi":0.0,"river_mi":0.0,"grade":"II-III","description":null,"source":"curated"},"geometry":{"type":"Point","coordinates":[-115.294733,44.532834]}},{"type":"Feature","properties":{"name":"Marble Creek Rapids","category":"rapid","kind":"rapid","distance_from_putin_mi":0.0,"river_mi":0.0,"grade":"III","description":null,"source":"curated"},"geometry":{"type":"Point","coordinates":[-115.020537,44.743816]}}]}